City_ID,City,Lat,Lng,Max Temp,Humidity,Cloudiness,Wind Speed,Country,Date
0,albany,42.6001,-73.9662,7.59,45,17,0.45,US,1707416815
1,pindobacu,-10.7417,-40.3608,33.07,35,97,1.05,BR,1707416834
2,adam,22.3756,57.5233,19.86,33,92,4.66,OM,1707416834
3,arish,31.1316,33.7984,17.06,69,56,2.51,EG,1707416835
4,adamstown,-25.066,-130.1015,23.83,91,100,12.47,PN,1707416633
5,troitsko-pechorsk,62.7084,56.1964,-6.28,89,99,4.02,RU,1707416835
6,kingston,17.997,-76.7936,26.57,62,20,3.6,JM,1707416744
7,vorgashor,67.5833,63.95,-9.17,83,100,6.24,RU,1707416634
8,whitehorse,60.7161,-135.0538,-21.47,79,75,0.45,CA,1707416578
9,margaret river,-33.95,115.0667,20.96,46,0,4.56,AU,1707416835
10,leh,34.1667,77.5833,-21.73,41,1,2.03,IN,1707416821
11,cannonvale,-20.2833,148.7,27.66,79,56,5.78,AU,1707416836
12,polyarnyy,69.1989,33.4478,-23.94,100,88,3.02,RU,1707416836
13,port mathurin,-19.6833,63.4167,27.08,76,93,10.44,MU,1707416836
14,brokopondo,4.75,-55.1667,31.73,51,86,0.27,SR,1707416836
15,yellowknife,62.456,-114.3525,-15.14,89,100,3.6,CA,1707416836
16,hermanus,-34.4187,19.2345,19.89,73,81,4.26,ZA,1707416658
17,college,64.8569,-147.8028,-24.05,72,40,0.0,US,1707416668
18,taroa,8.7058,171.2275,27.62,76,100,11.07,MH,1707416837
19,zhalantun,48.0,122.7167,-16.23,89,91,2.88,CN,1707416837
20,viedma,-40.8135,-62.9967,28.04,39,76,7.88,AR,1707416837
21,zabid,14.1951,43.3152,27.28,58,34,3.58,YE,1707416837
22,puerto ayora,-0.7393,-90.3518,28.64,88,87,2.68,EC,1707416838
23,juegang,32.3174,121.1855,1.5,76,100,2.84,CN,1707416838
24,grytviken,-54.2811,-36.5092,6.08,92,96,8.17,GS,1707416838
25,tobruk,32.0836,23.9764,16.87,53,0,3.41,LY,1707416838
26,port elizabeth,-33.918,25.5701,19.67,86,0,3.09,ZA,1707416666
27,edinburgh of the seven seas,-37.0676,-12.3116,18.62,75,94,5.54,SH,1707416640
28,matoury,4.8483,-52.3317,28.98,74,75,7.72,GF,1707416838
29,callao,-12.0667,-77.15,28.16,65,20,6.17,PE,1707416839
30,waitangi,-43.9535,-176.5597,15.46,74,21,1.79,NZ,1707416636
31,talnakh,69.4865,88.3972,-27.22,85,16,1.94,RU,1707416668
32,vadso,70.0744,29.7487,-14.91,85,75,6.69,NO,1707416685
33,blackmans bay,-43.0167,147.3167,11.52,85,65,0.45,AU,1707416635
34,tralee,52.2704,-9.7026,11.14,87,40,4.12,IE,1707416639
35,alexandria,31.2156,29.9553,16.42,62,77,2.15,EG,1707416610
36,at taraf,25.3628,49.725,15.3,56,0,2.61,SA,1707416839
37,ferkessedougou,9.6,-5.2,34.46,9,5,3.05,CI,1707416839
38,ushuaia,-54.8,-68.3,10.81,58,75,2.06,AR,1707416589
39,hamilton,39.1834,-84.5333,14.99,42,75,5.66,US,1707416463
40,mount pearl,47.5166,-52.7813,-0.52,87,100,7.72,CA,1707416680
41,thompson,55.7435,-97.8558,-16.91,85,100,5.66,CA,1707416644
42,avarua,-21.2078,-159.775,27.03,78,40,6.17,CK,1707416674
43,longyearbyen,78.2186,15.6401,-10.09,73,20,3.6,SJ,1707416641
44,gadzhiyevo,69.2551,33.3362,-25.02,100,92,2.85,RU,1707416840
45,pimentel,-6.8367,-79.9342,31.16,58,75,5.66,PE,1707416840
46,alofi,-19.0595,-169.9187,24.94,100,45,0.51,NU,1707416656
47,west island,-12.1568,96.8225,27.99,83,100,2.57,CC,1707416671
48,geraldton,-28.7667,114.6,25.23,23,3,1.03,AU,1707416666
49,hailey,43.5196,-114.3153,-2.79,72,0,0.0,US,1707416841
50,bredasdorp,-34.5322,20.0403,19.82,64,88,5.25,ZA,1707416640
51,ribeira grande,38.5167,-28.7,17.22,77,40,13.89,PT,1707416639
52,bilibino,68.0546,166.4372,-33.6,100,98,0.63,RU,1707416841
53,punta arenas,-53.15,-70.9167,14.06,51,75,12.35,CL,1707416373
54,adani,6.7397,7.0112,32.48,16,50,2.25,NG,1707416841
55,port-aux-francais,-49.35,70.2167,4.68,68,45,5.38,TF,1707416842
56,papatowai,-46.5619,169.4708,7.64,83,41,1.7,NZ,1707416631
57,santa terezinha,-29.9002,-50.0904,27.04,79,83,5.27,BR,1707416842
58,hithadhoo,-0.6,73.0833,28.18,75,100,4.32,MV,1707416675
59,darhan,49.4867,105.9228,-24.84,96,6,2.26,MN,1707416842
60,san patricio,28.017,-97.5169,23.62,65,100,4.13,US,1707416842
61,udachny,66.4167,112.4,-32.53,67,96,1.51,RU,1707416636
62,howrah,22.5892,88.3103,17.0,77,20,1.54,IN,1707416677
63,egilsstadir,65.2653,-14.3948,-12.05,79,0,3.09,IS,1707416842
64,puerto natales,-51.7236,-72.4875,18.25,39,75,14.92,CL,1707416632
65,rawson,-43.3002,-65.1023,21.88,33,56,3.47,AR,1707416843
66,tazacorte,28.629,-17.9293,23.42,17,0,9.26,ES,1707416707
67,kirensk,57.7853,108.1119,-12.57,98,100,0.22,RU,1707416843
68,chadan,51.2833,91.5833,-18.07,98,100,0.44,RU,1707416843
69,jamestown,42.097,-79.2353,9.7,40,0,4.12,US,1707416637
70,gore,-46.1028,168.9436,4.53,97,3,0.7,NZ,1707416843
71,enewetak,11.3474,162.3373,26.59,74,58,8.0,MH,1707416669
72,georgetown,5.4112,100.3354,28.03,87,20,1.03,MY,1707416641
73,tazovsky,67.4667,78.7,-14.34,95,98,5.91,RU,1707416665
74,moyale,3.5167,39.0584,25.96,45,93,2.35,KE,1707416844
75,wailua homesteads,22.0669,-159.378,21.61,79,75,6.17,US,1707416643
76,carloforte,39.145,8.3058,14.97,88,33,5.03,IT,1707416844
77,colonel hill,22.7667,-74.2167,22.53,67,21,9.35,BS,1707416844
78,paradip garh,20.3167,86.6167,21.61,63,6,1.61,IN,1707416844
79,wloszczowa,50.8526,19.9659,0.84,98,100,2.92,PL,1707416844
80,kone,-21.0595,164.8658,22.91,88,100,1.72,NC,1707416672
81,san antonio de pale,-1.4014,5.6325,28.39,75,78,3.71,GQ,1707416691
82,el calafate,-50.3408,-72.2768,13.52,56,89,4.71,AR,1707416715
83,ilulissat,69.2167,-51.1,-12.99,72,75,5.14,GL,1707416641
84,huangpi,30.8845,114.3779,0.06,93,86,1.0,CN,1707416845
85,cuajinicuilapa,16.4667,-98.4167,32.47,43,19,2.23,MX,1707416845
86,auki,-8.7676,160.7034,26.05,86,100,5.6,SB,1707416845
87,ribeira brava,32.65,-17.0667,21.53,95,100,7.91,PT,1707416688
88,yeppoon,-23.1333,150.7333,23.88,81,27,6.68,AU,1707416846
89,palikir - national government center,6.9248,158.1611,26.41,83,100,2.06,FM,1707416715
90,tiksi,71.6872,128.8694,-22.1,100,100,1.62,RU,1707416632
91,tolanaro,-25.0319,46.9987,24.99,86,14,5.94,MG,1707416722
92,invercargill,-46.4,168.35,5.57,94,16,0.89,NZ,1707416607
93,san angelo,31.4638,-100.437,16.52,38,0,5.66,US,1707416846
94,vilyuchinsk,52.9306,158.4028,-10.04,85,100,2.68,RU,1707416649
95,touros,-5.1989,-35.4608,29.99,66,16,5.87,BR,1707416689
96,yuma,32.7253,-114.6244,12.96,61,100,2.57,US,1707416251
97,guelendeng,10.9176,15.5501,26.36,15,8,3.51,TD,1707416847
98,bataipora,-22.2953,-53.2711,28.9,56,100,2.57,BR,1707416847
99,puerto aysen,-45.4,-72.7,18.0,65,99,2.09,CL,1707416847
100,petropavlovsk-kamchatsky,53.0452,158.6483,-10.86,90,75,4.0,RU,1707416637
101,dakhla,23.6848,-15.958,23.01,56,29,4.63,EH,1707416847
102,keflavik,64.0049,-22.5624,-6.76,68,0,4.63,IS,1707416678
103,hiratacho,35.4333,132.8167,2.98,87,75,3.09,JP,1707416847
104,cotonou,6.3654,2.4183,28.99,70,44,3.6,BJ,1707416848
105,stanley,54.868,-1.6985,0.9,95,75,7.72,GB,1707416662
106,vila do maio,15.1333,-23.2167,28.44,72,0,4.68,CV,1707416848
107,ishikawa,26.4233,127.8214,16.01,73,100,4.12,JP,1707416848
108,altai,46.3722,96.2583,-14.06,56,18,1.46,MN,1707416714
109,atafu village,-8.5421,-172.5159,27.62,77,100,4.6,TK,1707416657
110,yuryuzan',54.8633,58.4219,-3.78,88,100,7.15,RU,1707416848
111,uturoa,-16.7333,-151.4333,28.03,83,98,7.93,PF,1707416693
112,eyl,7.9803,49.8164,25.72,65,42,7.35,SO,1707416646
113,port alfred,-33.5906,26.891,18.43,88,26,0.45,ZA,1707416672
114,xiaoshi,41.2971,124.1209,-12.19,97,98,0.66,CN,1707416849
115,hobyo,5.3505,48.5268,26.37,74,29,9.03,SO,1707416849
116,bengkulu,-3.8004,102.2655,25.05,88,63,1.72,ID,1707416849
117,bethel,41.3712,-73.414,9.59,38,0,0.89,US,1707416853
118,quellon,-43.1167,-73.6167,16.42,61,12,7.22,CL,1707416658
119,ludington,43.9553,-86.4526,13.19,49,0,8.23,US,1707416853
120,aasiaat,68.7098,-52.8699,-24.6,99,99,3.85,GL,1707416656
121,tahoua,14.8888,5.2692,26.99,14,35,3.6,NE,1707416853
122,nova sintra,14.8667,-24.7167,21.98,72,0,4.54,CV,1707416671
123,nar'yan-mar,67.6713,53.087,-6.05,85,99,5.81,RU,1707416854
124,hawaiian paradise park,19.5933,-154.9731,18.96,93,20,1.54,US,1707416673
125,porto novo,6.4965,2.6036,28.9,62,44,3.49,BJ,1707416659
126,la cruz,23.9167,-106.9,22.88,66,70,2.85,MX,1707416854
127,san julian,21.0167,-102.1667,23.49,18,67,3.79,MX,1707416854
128,bhatkal,13.9667,74.5667,25.4,78,6,1.89,IN,1707416854
129,loukhi,66.0764,33.0381,-23.56,99,98,2.03,RU,1707416854
130,pisco,-13.7,-76.2167,29.03,65,0,4.63,PE,1707416663
131,sabaneta,6.15,-75.6,22.99,71,40,6.26,CO,1707416855
132,pekin,39.9075,116.3972,-6.06,45,12,0.95,CN,1707416855
133,banda aceh,5.5577,95.3222,25.85,86,78,4.34,ID,1707416642
134,karratha,-20.7377,116.8463,28.94,67,16,5.17,AU,1707416656
135,ngaruawahia,-37.6674,175.1555,16.78,91,100,0.85,NZ,1707416855
136,kodiak,57.79,-152.4072,-1.27,100,100,0.0,US,1707416670
137,sao raimundo nonato,-9.0153,-42.6994,34.27,37,79,1.79,BR,1707416855
138,fortuna,40.5982,-124.1573,7.16,95,75,0.0,US,1707416706
139,namtsy,62.7161,129.6658,-38.05,99,97,0.3,RU,1707416855
140,san pedro pochutla,15.7333,-96.4667,27.84,44,8,3.73,MX,1707416856
141,fort mcmurray,56.7268,-111.381,-6.27,86,100,1.03,CA,1707416681
142,cozumel,20.5083,-86.9458,26.07,68,75,5.14,MX,1707416624
143,knyaze-volkonskoye,48.4642,135.4567,-14.81,100,52,1.76,RU,1707416856
144,okha,53.5739,142.9478,-20.04,100,92,4.04,RU,1707416856
145,iqaluit,63.7506,-68.5145,-20.15,65,75,1.03,CA,1707416643
146,deschutes river woods,43.9915,-121.3584,0.27,80,75,0.89,US,1707416683
147,vila franca do campo,37.7167,-25.4333,18.27,99,74,9.87,PT,1707416648
148,bambui,-20.0064,-45.9769,26.51,66,100,2.65,BR,1707416856
149,kwekwe,-18.9281,29.8149,26.2,39,15,4.95,ZW,1707416857
150,coquimbo,-29.9533,-71.3436,20.85,77,75,5.66,CL,1707416575
151,zhangzhou,24.5133,117.6556,8.96,93,100,0.63,CN,1707416857
152,zanesville,39.9404,-82.0132,15.9,36,0,4.12,US,1707416857
153,coxim,-18.5067,-54.76,32.3,53,87,3.19,BR,1707416857
154,turkmenbasy,40.0222,52.9552,12.43,62,0,6.17,TM,1707416857
155,meadow lake,34.8014,-106.5436,6.64,39,48,3.37,US,1707416857
156,remire-montjoly,4.9167,-52.2667,29.02,74,75,7.72,GF,1707416705
157,gorom-gorom,14.4439,-0.2361,27.35,8,13,3.71,BF,1707416858
158,wisconsin rapids,44.3836,-89.8174,12.15,50,20,6.17,US,1707416858
159,skopin,53.8249,39.5505,-13.53,92,71,5.61,RU,1707416858
160,jinchang,38.4953,102.1739,-5.49,59,11,3.23,CN,1707416858
161,rikaze,29.25,88.8833,-3.82,14,1,4.05,CN,1707416636
162,nuku'alofa,-21.1333,-175.2,26.19,94,75,2.06,TO,1707416685
163,chizhou,30.6578,117.4831,1.25,86,92,0.64,CN,1707416858
164,sretensk,52.2453,117.7093,-25.37,100,79,0.53,RU,1707416858
165,hondo,32.45,130.2,8.87,64,31,3.33,JP,1707416859
166,tsetserleg,47.475,101.4542,-19.05,76,7,2.91,MN,1707416859
167,sisimiut,66.9395,-53.6735,-15.54,92,100,1.41,GL,1707416720
168,tavda,58.0425,65.2726,-9.06,95,100,3.13,RU,1707416859
169,olonkinbyen,70.9221,-8.7187,-2.3,72,55,6.63,SJ,1707416641
170,peterhead,57.5058,-1.7981,1.22,58,80,6.94,GB,1707416859
171,kailua-kona,19.6406,-155.9956,22.9,74,100,2.06,US,1707416704
172,khorinsk,52.1657,109.7726,-22.73,100,37,1.02,RU,1707416859
173,makokou,0.5738,12.8642,28.91,46,64,1.51,GA,1707416860
174,namdrik,5.5994,168.1028,27.85,78,62,9.2,MH,1707416860
175,urengoy,65.9667,78.3667,-6.39,93,99,7.61,RU,1707416696
176,belmonte,-15.8631,-38.8828,26.36,83,100,0.78,BR,1707416860
177,anadyr,64.75,177.4833,-9.72,85,20,11.0,RU,1707416637
178,mount gambier,-37.8333,140.7667,10.82,91,5,2.46,AU,1707416707
179,harper,4.375,-7.7169,28.28,73,2,4.75,LR,1707416860
180,bakanas,44.8081,76.2772,1.67,91,98,6.9,KZ,1707416860
181,isafjordur,66.0755,-23.124,-4.98,68,75,1.54,IS,1707416660
182,manaure,11.7751,-72.4445,27.2,66,63,5.81,CO,1707416861
183,usinsk,65.9939,57.5281,-3.85,85,100,4.47,RU,1707416664
184,sen monorom,12.45,107.2,19.37,91,44,1.27,KH,1707416861
185,maragogi,-9.0122,-35.2225,30.33,64,38,6.11,BR,1707416861
186,murray bridge,-35.1167,139.2667,14.51,81,0,3.95,AU,1707416861
187,trincomalee,8.5711,81.2335,26.44,74,100,4.83,LK,1707416861
188,queenstown,-31.8976,26.8753,16.65,81,0,5.26,ZA,1707416692
189,talara,-4.5772,-81.2719,31.42,66,40,5.14,PE,1707416862
190,puerto maldonado,-12.6,-69.1833,32.22,66,75,3.09,PE,1707416862
191,armacao de buzios,-22.7469,-41.8817,30.68,75,44,4.49,BR,1707416862
192,port lincoln,-34.7333,135.8667,16.05,82,1,5.91,AU,1707416692
193,steamboat springs,40.485,-106.8317,-2.07,84,100,2.06,US,1707416733
194,port macquarie,-31.4333,152.9167,18.27,86,72,4.41,AU,1707416660
195,huarmey,-10.0681,-78.1522,27.46,71,85,4.31,PE,1707416653
196,box elder,41.5005,-112.8764,2.37,76,88,1.16,US,1707416862
197,ouarzazat,30.9189,-6.8934,20.16,9,40,2.06,MA,1707416862
198,weno,7.4515,151.8468,26.97,89,100,4.63,FM,1707416655
199,edd,13.9297,41.6925,28.62,55,29,9.53,ER,1707416863
200,hotan,37.0997,79.9269,-0.72,52,3,1.4,CN,1707416863
201,colby,39.3958,-101.0524,10.29,56,0,10.29,US,1707416863
202,khandyga,62.6667,135.6,-45.72,100,71,0.94,RU,1707416704
203,paracuru,-3.41,-39.0306,30.06,64,34,6.17,BR,1707416863
204,jilib,0.4883,42.7854,26.48,80,50,4.44,SO,1707416863
205,damara,4.9608,18.7035,29.6,24,54,1.39,CF,1707416864
206,namibe,-15.1961,12.1522,25.74,79,83,3.52,AO,1707416672
207,zhezqazghan,47.7833,67.7667,0.91,97,100,10.34,KZ,1707416864
208,kayes,14.0,-11.0,36.14,7,95,4.04,ML,1707416864
209,fuglafjordur,62.244,-6.814,-1.74,62,100,6.93,FO,1707416864
210,sastobe,42.55,70.0,5.94,75,94,2.42,KZ,1707416864
211,emerald,-23.5333,148.1667,22.41,80,25,3.21,AU,1707416864
212,utrik,11.2278,169.8474,26.47,84,98,9.93,MH,1707416865
213,constantia,44.1833,28.65,7.38,62,28,3.5,RO,1707416645
214,fale old settlement,-9.3852,-171.2468,27.96,79,100,8.67,TK,1707416649
215,yangambi,0.8102,24.4336,27.25,29,0,1.02,CD,1707416865
216,bandon,51.7469,-8.7425,10.77,97,100,3.31,IE,1707416865
217,zaragoza,41.6561,-0.8773,13.04,63,20,2.57,ES,1707416865
218,colonia,50.9333,6.95,11.37,88,100,3.6,DE,1707416551
219,nuuk,64.1835,-51.7216,-10.66,79,75,4.12,GL,1707416674
220,christchurch,-43.5333,172.6333,13.03,89,100,0.0,NZ,1707416170
221,esfarayen,37.0765,57.5101,1.81,60,0,1.18,IR,1707416775
222,mont-dore,-22.2833,166.5833,26.67,99,100,4.39,NC,1707416866
223,chaoyang,41.5703,120.4586,-4.86,53,72,0.47,CN,1707416866
224,uglekamensk,43.2172,133.2303,-14.13,95,18,1.04,RU,1707416866
225,broken hill,-31.95,141.4333,22.45,41,39,4.0,AU,1707416716
226,kandi,11.1342,2.9386,29.02,12,5,2.27,BJ,1707416866
227,east london,-33.0153,27.9116,19.52,88,0,1.03,ZA,1707416663
228,haiku-pauwela,20.9219,-156.3051,19.82,73,20,1.54,US,1707416652
229,lisala,2.15,21.5167,27.62,33,35,1.09,CD,1707416867
230,luderitz,-26.6481,15.1594,21.02,71,21,10.54,NA,1707416677
231,reggane,26.7158,0.1714,20.65,13,0,2.17,DZ,1707416867
232,duki,30.1541,68.5728,11.25,38,0,2.52,PK,1707416867
233,pangody,65.85,74.4859,-5.58,93,99,7.96,RU,1707416700
234,chonchi,-42.6128,-73.8092,18.56,39,50,2.75,CL,1707416679
235,new norfolk,-42.7826,147.0587,12.18,90,81,1.65,AU,1707416717
236,businga,3.3333,20.8833,28.39,31,72,0.88,CD,1707416867
237,yuzhno-kurilsk,44.0306,145.8556,-7.57,92,20,5.78,RU,1707416645
238,iwakuni,34.15,132.1833,3.79,74,96,2.56,JP,1707416868
239,vorkuta,67.5,64.0,-9.5,83,100,6.35,RU,1707416868
240,ashburton,-37.8626,145.0794,17.43,85,57,0.45,AU,1707416868
241,buka,40.8108,69.1986,9.29,51,100,1.11,UZ,1707416868
242,kirakira,-10.4544,161.9205,27.72,82,100,7.1,SB,1707416868
243,sursk,53.0754,45.6846,-14.67,94,100,5.87,RU,1707416868
244,torghay,49.6339,63.4981,2.37,97,100,10.49,KZ,1707416868
245,as sulayyil,20.4607,45.5779,17.14,41,37,6.03,SA,1707416869
246,grantsville,40.5999,-112.4644,4.27,81,100,0.0,US,1707416869
247,chaozhou,23.6651,116.6379,9.92,82,99,2.18,CN,1707416869
248,ekibastuz,51.6667,75.3667,-1.91,85,100,11.37,KZ,1707416869
249,crane,31.3974,-102.3501,13.15,31,62,8.26,US,1707416638
250,marsassoum,12.8275,-15.9806,36.05,6,78,3.06,SN,1707416869
251,qarauyl,48.9451,79.255,-5.2,81,100,12.8,KZ,1707416869
252,oriximina,-1.7656,-55.8661,33.43,46,60,1.5,BR,1707416869
253,st. john's,47.5649,-52.7093,-0.17,88,100,7.72,CA,1707416661
254,richards bay,-28.783,32.0377,23.38,78,24,2.13,ZA,1707416870
255,yelizovo,53.1873,158.3805,-10.98,72,75,4.02,RU,1707416663
256,santo domingo de los colorados,-0.25,-79.15,25.82,84,100,1.23,EC,1707416870
257,sinop,41.7711,34.8709,9.09,70,100,3.24,TR,1707416870
258,susuman,62.7833,148.1667,-37.79,100,91,1.34,RU,1707416643
259,mili,6.0815,171.735,28.1,72,82,7.84,MH,1707416870
260,tual,-5.6667,132.75,28.21,79,100,7.44,ID,1707416870
261,pundong,-7.9522,110.3486,25.6,86,55,0.82,ID,1707416871
262,smithers,54.7804,-127.1743,-5.82,93,100,1.54,CA,1707416871
263,oneonta,42.4529,-75.0638,10.48,45,18,1.84,US,1707416871
264,taltal,-25.4,-70.4833,22.91,72,18,2.25,CL,1707416871
265,neryungri,56.6709,124.6491,-34.52,100,90,1.15,RU,1707416871
266,codrington,-38.2667,141.9667,11.82,88,4,2.64,AU,1707416652
267,praia da vitoria,38.7333,-27.0667,17.14,77,20,10.13,PT,1707416722
268,kidal,18.4411,1.4078,24.04,7,89,3.21,ML,1707416776
269,canutama,-6.5339,-64.3831,33.75,52,97,0.81,BR,1707416872
270,hasaki,35.7333,140.8333,0.22,61,100,8.09,JP,1707416640
271,sinabang,2.4803,96.3801,27.17,79,72,1.35,ID,1707416676
272,klyuchi,52.2667,79.1667,-3.29,74,99,8.45,RU,1707416637
273,saipan,15.1355,145.701,25.39,73,0,5.66,MP,1707416664
274,mendi,-6.1761,143.6513,12.99,99,99,0.45,PG,1707416872
275,kralendijk,12.15,-68.2667,25.57,81,93,4.27,BQ,1707416872
276,baruun-urt,46.6806,113.2792,-25.52,100,91,2.42,MN,1707416690
277,kyabe,9.4515,18.9449,30.19,16,19,1.83,TD,1707416872
278,portland,45.5234,-122.6762,6.49,93,75,1.34,US,1707416365
279,uberaba,-19.7483,-47.9319,26.32,73,75,3.09,BR,1707416462
280,rockport,28.0206,-97.0544,22.58,71,40,5.14,US,1707416873
281,nanakuli,21.3906,-158.1547,22.43,73,75,2.57,US,1707416873
282,tsengel,49.4783,100.8894,-21.21,89,18,2.52,MN,1707416873
283,ad dawadimi,24.5077,44.3924,14.64,29,94,5.34,SA,1707416873
284,corner brook,48.9667,-57.9484,-2.91,79,100,1.68,CA,1707416711
285,qarqaraly,49.4058,75.4742,-5.2,84,100,9.46,KZ,1707416873
286,santona,43.4439,-3.4576,15.49,61,100,6.76,ES,1707416874
287,saint-francois,46.4154,3.9054,14.66,60,0,3.6,FR,1707416874
288,fisterra,42.9049,-9.2629,14.86,83,78,12.29,ES,1707416874
289,happy valley-goose bay,53.3168,-60.3315,-5.83,79,75,1.03,CA,1707416696
290,laayoune,27.1622,-13.2032,27.19,14,77,4.12,EH,1707416371
291,port-cartier,50.0334,-66.8654,-2.23,84,33,1.22,CA,1707416874
292,aykhal,66.0,111.5,-33.15,100,95,2.32,RU,1707416638
293,verkh-chebula,56.0308,87.6218,-2.64,80,82,5.7,RU,1707416874
294,tingi,-11.3,35.0333,19.98,87,17,1.37,TZ,1707416874
295,tsiombe,-25.3,45.4833,24.08,93,77,1.78,MG,1707416875
296,tromso,69.6496,18.957,-9.99,67,0,8.75,NO,1707416875
297,lauro de freitas,-12.8944,-38.3272,31.01,74,40,7.72,BR,1707416665
298,labasa,-16.4167,179.3833,26.46,91,100,4.24,FJ,1707416875
299,kertih,4.5141,103.4483,26.01,89,41,1.03,MY,1707416875
300,rongelap,11.1635,166.8941,26.42,86,94,9.47,MH,1707416660
301,axim,4.8699,-2.2405,27.87,70,24,4.14,GH,1707416722
302,prymors'k,46.7348,36.3443,5.77,89,100,2.31,UA,1707416680
303,sur,22.5667,59.5289,21.28,68,92,4.19,OM,1707416875
304,lompoc,34.6391,-120.4579,10.89,73,40,1.79,US,1707416679
305,naze,28.3667,129.4833,12.51,72,100,4.85,JP,1707416658
306,fort st. john,56.2499,-120.8529,-9.06,92,75,3.09,CA,1707416876
307,tura,25.5198,90.2201,11.96,43,29,1.34,IN,1707416673
308,kaa-khem,51.6833,94.7333,-25.89,93,70,0.58,RU,1707416876
309,ca mau,9.1769,105.15,24.28,82,94,1.7,VN,1707416876
310,mombetsu,44.3525,143.3525,-9.31,93,90,2.48,JP,1707416876
311,murghob,38.1702,73.9667,-19.76,77,57,2.45,TJ,1707416876
312,montecanal,41.6297,-0.9387,12.77,64,20,2.57,ES,1707416876
313,san mariano,7.5,126.0,21.54,97,64,1.11,PH,1707416877
314,vol'no-nadezhdinskoye,43.3833,131.9917,-18.29,78,24,0.0,RU,1707416877
315,petrovsk-zabaykal'skiy,51.273,108.843,-22.78,100,40,1.08,RU,1707416877
316,caleta olivia,-46.4393,-67.5281,19.82,41,0,8.08,AR,1707416674
317,hadibu,12.65,54.0333,24.89,80,10,6.38,YE,1707416877
318,flying fish cove,-10.4217,105.6791,26.82,83,40,2.57,CX,1707416688
319,carbonear,47.7332,-53.2148,-0.16,89,63,6.69,CA,1707416877
320,dudinka,69.4058,86.1778,-30.18,95,7,2.24,RU,1707416683
321,chopda,21.25,75.3,22.22,35,11,2.67,IN,1707416878
322,comodoro rivadavia,-45.8667,-67.5,22.92,27,0,7.2,AR,1707416878
323,minas de marcona,-15.2119,-75.1103,25.49,63,40,5.27,PE,1707416878
324,lagoa,39.05,-27.9833,14.9,84,59,15.24,PT,1707416878
325,island harbour,50.724,-1.2758,10.12,94,100,4.92,GB,1707416683
326,rajin,42.2489,130.3003,-4.38,59,23,1.53,KP,1707416878
327,kapuskasing,49.4169,-82.4331,6.0,61,75,7.2,CA,1707416637
328,bucerias,20.75,-105.3333,26.99,54,20,1.03,MX,1707416878
329,hacienda huancane,-15.8222,-70.8856,12.22,31,99,2.99,PE,1707416879
330,greenville,35.6127,-77.3663,12.37,44,0,1.79,US,1707416437
331,nalut,30.3333,10.85,13.8,27,0,3.42,LY,1707416879
332,zhanaozen,43.3,52.8,8.81,63,19,5.93,KZ,1707416879
333,iskateley,67.6803,53.1512,-6.1,85,99,5.81,RU,1707416689
334,margate,51.3813,1.3862,10.4,94,100,4.47,GB,1707416710
335,flin flon,54.7682,-101.865,-13.09,78,100,4.63,CA,1707416879
336,cockburn town,21.4612,-71.1419,23.27,53,62,7.14,TC,1707416669
337,fort bragg,35.139,-79.006,12.6,39,0,0.89,US,1707416880
338,altamirano,16.8833,-92.15,24.0,22,9,1.96,MX,1707416880
339,rancho palos verdes,33.7445,-118.387,12.34,71,40,4.63,US,1707416880
340,arraial do cabo,-22.9661,-42.0278,29.92,74,40,6.17,BR,1707416715
341,manta,-0.95,-80.7333,26.67,83,20,6.71,EC,1707416880
342,ancud,-41.8697,-73.8203,18.21,58,77,3.3,CL,1707416670
343,xichang,27.8964,102.2634,4.36,86,94,2.11,CN,1707416881
344,noumea,-22.2763,166.4572,26.67,99,100,5.94,NC,1707416881
345,lihue,21.9789,-159.3672,22.18,78,75,6.17,US,1707416649
346,bamboo flat,11.7,92.7167,26.05,89,20,2.57,IN,1707416721
347,puerto deseado,-47.7503,-65.8938,19.04,41,19,5.22,AR,1707416725
348,wajir,1.7471,40.0573,32.98,46,20,0.0,KE,1707416881
349,essaouira,31.5125,-9.77,23.72,14,40,6.17,MA,1707416671
350,husainabad,24.5333,84.0167,12.84,31,33,1.29,IN,1707416881
351,lorengau,-2.0226,147.2712,26.99,84,100,4.58,PG,1707416649
352,pavlohrad,48.5167,35.8667,2.17,88,100,1.93,UA,1707416803
353,prainha,-1.8,-53.48,32.73,47,100,1.06,BR,1707416882
354,shahrisabz,39.0578,66.8342,10.42,37,100,3.17,UZ,1707416882
355,mutsu,41.2894,141.2169,-0.37,59,82,4.59,JP,1707416641
356,kapit,2.0167,112.9333,23.34,100,91,0.13,MY,1707416882
357,brisas de zicatela,15.8369,-97.0419,29.29,70,20,3.09,MX,1707416678
358,la passe,45.5549,-0.8967,13.13,81,100,13.24,FR,1707416639
359,cidreira,-30.1811,-50.2056,26.31,80,69,5.97,BR,1707416685
360,yaren,-0.5472,166.916,28.12,81,100,7.55,NR,1707416883
361,hammerfest,70.6634,23.6821,-11.75,72,68,5.14,NO,1707416883
362,wotje,9.4543,170.2367,27.04,80,100,10.49,MH,1707416883
363,tallulah,32.4085,-91.1868,18.0,68,100,4.12,US,1707416883
364,carrigaline,51.8117,-8.3986,10.86,100,100,3.09,IE,1707416786
365,omdurman,15.6445,32.4777,24.76,12,2,4.64,SD,1707416883
366,antsiranana,-12.2787,49.2917,25.8,90,100,2.65,MG,1707416883
367,kapa'a,22.0752,-159.319,22.4,78,75,6.17,US,1707416693
368,havre,49.5833,0.3333,11.66,82,75,6.69,FR,1707416681
369,kansanshi,-12.0951,26.4273,19.2,88,44,1.5,ZM,1707416884
370,novaya ladoga,60.1025,32.3019,-21.73,100,88,2.13,RU,1707416884
371,lebu,-37.6167,-73.65,16.97,66,62,8.53,CL,1707416680
372,saint-mandrier-sur-mer,43.078,5.929,13.18,81,0,2.57,FR,1707416884
373,qaqortoq,60.7167,-46.0333,-9.83,60,15,8.81,GL,1707416653
374,beloyarskiy,63.7119,66.6722,-6.67,90,100,4.02,RU,1707416675
375,suva,-18.1416,178.4415,24.71,94,75,0.51,FJ,1707416868
376,mezhdurechenskiy,59.6,65.9333,-8.45,93,100,5.0,RU,1707416885
377,sonoita,31.85,-112.8333,12.57,70,49,12.26,MX,1707416885
378,smara,26.7384,-11.6719,26.72,7,54,3.41,EH,1707416689
379,severo-yeniseyskiy,60.3725,93.0408,-15.24,98,99,1.79,RU,1707416885
380,mossel bay,-34.1831,22.146,19.96,73,22,2.9,ZA,1707416710
381,tayshet,55.9342,98.0044,-19.73,100,94,1.59,RU,1707416885
382,mount isa,-20.7333,139.5,23.87,88,40,0.0,AU,1707416653
383,montepuez,-13.1256,38.9997,22.88,89,100,0.51,MZ,1707416885
384,ust'-ilimsk,58.0006,102.6619,-8.76,98,100,1.34,RU,1707416886
385,bel ombre,-4.6167,55.4167,27.91,78,40,5.14,SC,1707416722
386,revelstoke,50.9832,-118.2023,3.01,70,100,6.17,CA,1707416725
387,qarazhal,48.0078,70.7903,1.02,95,100,10.59,KZ,1707416688
388,shingu,33.7333,135.9833,2.77,71,90,2.46,JP,1707416886
389,gizo,-8.103,156.8419,27.42,86,100,9.92,SB,1707416722
390,mohr,54.3528,9.7167,1.95,91,100,2.37,DE,1707416886
391,ghanzi,-21.5667,21.7833,28.85,34,76,4.24,BW,1707416886
392,piti village,13.4626,144.6933,25.9,74,20,4.63,GU,1707416637
393,guangshui,31.6199,113.9978,0.68,84,85,0.91,CN,1707416887
394,sao jose da coroa grande,-8.8978,-35.1478,30.32,64,32,5.69,BR,1707416887
395,masterton,-40.9597,175.6575,13.39,92,100,0.58,NZ,1707416887
396,redbank plains,-27.6461,152.8596,21.62,90,100,2.57,AU,1707416887
397,novyy urengoy,66.0833,76.6333,-6.07,94,100,7.8,RU,1707416664
398,solnechnyy,50.7214,136.6319,-20.54,99,99,1.27,RU,1707416659
399,rock hill,34.9249,-81.0251,13.01,37,0,1.96,US,1707416844
400,kilindoni,-7.9139,39.6668,28.58,80,9,6.99,TZ,1707416888
401,shahin dezh,36.6793,46.5669,4.9,72,59,2.24,IR,1707416888
402,lata,40.1629,-8.3327,14.1,95,100,4.98,PT,1707416888
403,bikenibeu village,1.3673,173.1241,28.72,74,100,8.54,KI,1707416673
404,nadi,-17.8,177.4167,24.0,94,40,2.57,FJ,1707416888
405,dalnegorsk,44.5604,135.5701,-14.67,95,16,2.24,RU,1707416888
406,fuerte olimpo,-21.0415,-57.8738,35.83,38,85,2.23,PY,1707416888
407,sydney,-33.8679,151.2073,16.85,76,40,4.63,AU,1707416619
408,tome,-36.6167,-72.95,22.34,52,71,4.44,CL,1707416889
409,sterling,39.0062,-77.4286,12.03,42,75,5.14,US,1707416811
410,sao borja,-28.6606,-56.0044,36.64,39,36,2.62,BR,1707416889
411,nikel,69.4128,30.222,-22.9,99,31,2.22,RU,1707416889
412,kasli,55.8909,60.7616,-13.18,98,91,1.6,RU,1707416889
413,santa marta,11.2408,-74.199,29.38,62,0,1.34,CO,1707416889
414,yenotayevka,47.2456,47.0281,7.19,90,100,3.82,RU,1707416889
415,pathein,16.7833,94.7333,23.0,68,0,6.31,MM,1707416890
416,qamdo,31.1667,97.2333,-8.14,65,100,1.82,CN,1707416692
417,bandarbeyla,9.4942,50.8122,26.13,67,76,7.33,SO,1707416890
418,chauvigny,46.5675,0.6493,12.21,76,100,10.82,FR,1707416890
419,meridian,43.6121,-116.3915,3.87,78,0,2.57,US,1707416761
420,barra de santo antonio,-9.4047,-35.5072,32.6,67,38,6.84,BR,1707416890
421,opuwo,-18.0607,13.84,23.21,71,88,4.24,NA,1707416890
422,cobourg,50.2667,10.9667,9.33,95,100,0.45,DE,1707416890
423,ust'-kulom,61.6864,53.6902,-9.89,89,82,3.77,RU,1707416692
424,aldinga beach,-35.2793,138.4604,15.46,83,2,5.78,AU,1707416891
425,morondava,-20.2833,44.2833,28.24,72,31,2.56,MG,1707416891
426,ciudad acuna,29.3232,-100.9522,22.1,33,0,5.66,MX,1707416891
427,zhangjiakou shi xuanhua qu,40.6103,115.0447,-8.46,86,15,1.3,CN,1707416891
428,ust-nera,64.5667,143.2,-30.67,100,100,1.07,RU,1707416686
429,new ross,52.3967,-6.9367,9.82,1,100,2.94,IE,1707416891
430,hirara,24.8,125.2833,17.15,88,75,9.77,JP,1707416891
431,dillon,34.4166,-79.3712,13.73,42,72,0.94,US,1707416892
432,palu,-0.8917,119.8707,24.44,93,98,0.65,ID,1707416892
433,mahina,-17.5065,-149.489,26.87,94,75,8.75,PF,1707416892
434,baijiantan,45.6333,85.1833,-12.62,96,87,2.69,CN,1707416892
435,cheremshan,54.6667,51.5,-12.87,92,100,6.84,RU,1707416892
436,kisangani,0.5167,25.2,27.4,32,5,0.83,CD,1707416892
437,mangrol,21.1167,70.1167,22.39,42,68,5.78,IN,1707416892
438,dallas,32.7668,-96.7836,20.31,53,75,5.66,US,1707416744
439,choyr,46.3611,108.3611,-23.67,91,23,3.2,MN,1707416893
440,funafuti,-8.5243,179.1942,29.0,89,75,5.66,TV,1707416893
441,salmon arm,50.6998,-119.3024,1.62,100,93,1.03,CA,1707416893
442,kurumkan,54.3,110.3,-14.93,93,55,2.24,RU,1707416893
443,nova vicosa,-17.8919,-39.3719,24.94,84,100,1.66,BR,1707416893
444,ciudad lazaro cardenas,17.9583,-102.2,28.79,56,73,3.76,MX,1707416865
445,uliastay,47.7417,96.8444,-19.24,75,2,3.6,MN,1707416893
446,badger,64.8,-147.5333,-24.29,82,40,0.0,US,1707416647
447,palmer,42.1584,-72.3287,8.82,35,20,2.06,US,1707416673
448,pajara,28.3504,-14.1076,23.73,48,97,3.94,ES,1707416894
449,zhangjiakou,40.81,114.8794,-10.47,87,19,1.47,CN,1707416894
450,sola,-13.8833,167.55,26.37,94,100,3.09,VU,1707416894
451,turuntayevo,52.2,107.6167,-24.95,99,35,0.42,RU,1707416894
452,kununurra,-15.7667,128.7333,26.99,89,100,0.0,AU,1707416699
453,zdvinsk,54.7021,78.661,-5.21,92,100,7.13,RU,1707416894
454,sitka,57.0531,-135.33,2.94,81,75,0.0,US,1707416636
455,cabo san lucas,22.8909,-109.9124,22.78,59,75,0.45,MX,1707416569
456,sint michiel liber,12.15,-68.9833,26.9,74,20,5.14,CW,1707416895
457,williamsburg,37.2707,-76.7075,10.62,52,75,2.06,US,1707416731
458,san jose de guanipa,8.8872,-64.1651,32.7,44,98,3.55,VE,1707416895
459,suicheng,33.8963,117.9331,-1.08,90,87,2.47,CN,1707416895
460,gamay,12.3854,125.2979,25.42,83,78,2.41,PH,1707416895
461,waingapu,-9.6567,120.2641,26.38,86,98,2.63,ID,1707416895
462,newman,37.3138,-121.0208,8.31,85,71,0.45,US,1707416827
463,ghat,24.9647,10.1728,17.14,18,62,2.92,LY,1707416896
464,egersund,58.4513,5.9997,-2.75,72,1,2.87,NO,1707416896
465,primero de mayo,-32.2552,-58.4228,38.64,20,34,6.09,AR,1707416896
466,kasoa,5.533,-0.4224,29.25,62,21,5.02,GH,1707416896
467,al bawiti,28.3492,28.8659,15.78,37,5,3.6,EG,1707416896
468,katima mulilo,-17.5,24.2667,23.88,70,72,3.0,NA,1707416896
469,zeribet el oued,34.6828,6.5111,17.57,29,25,1.94,DZ,1707416897
470,thunder bay,48.4001,-89.3168,3.95,81,20,4.12,CA,1707416629
471,ola,59.5833,151.2833,-24.37,88,18,3.68,RU,1707416897
472,retreat,38.8245,-85.8533,15.69,35,98,3.13,US,1707416897
473,basco,20.4487,121.9702,22.81,75,55,7.88,PH,1707416897
474,hilo,19.7297,-155.09,19.41,88,20,2.68,US,1707416897
475,kenai,60.5544,-151.2583,-5.97,93,75,4.63,US,1707416538
476,alindao,5.0267,21.2088,29.84,25,50,1.83,CF,1707416897
477,el colorado,-26.3081,-59.3729,39.96,25,100,4.28,AR,1707416898
478,nikol'sk,53.7189,46.0712,-14.1,94,100,6.47,RU,1707416898
479,shiyan,32.6475,110.7781,2.71,84,66,1.95,CN,1707416762
480,butembo,0.15,29.2833,17.35,75,62,1.28,CD,1707416898
481,promyshlennaya,54.9159,85.6385,-1.93,95,64,5.03,RU,1707416898
482,port douglas,-16.4833,145.4667,25.96,83,70,3.02,AU,1707416693
483,makaha,21.4694,-158.2175,22.5,72,10,4.31,US,1707416898
484,antofagasta,-23.65,-70.4,25.6,68,4,4.25,CL,1707416575
485,illapel,-31.6308,-71.1653,28.91,46,5,4.66,CL,1707416899
486,floro,61.5996,5.0328,-3.02,80,20,2.57,NO,1707416899
487,san juan,-31.5375,-68.5364,34.95,33,93,7.79,AR,1707416869
488,afaahiti,-17.75,-149.2833,25.93,92,99,11.0,PF,1707416679
489,santana,-0.0583,-51.1817,33.1,62,20,6.17,BR,1707416624
490,orden,46.3937,9.6963,0.21,95,97,2.57,CH,1707416899
491,langenargen,47.6,9.55,9.37,87,0,1.54,DE,1707416899
492,chandler,33.3062,-111.8412,13.48,58,75,8.75,US,1707416742
493,baie-comeau,49.2168,-68.1489,-4.18,80,75,2.06,CA,1707416900
494,ondo,7.1,4.8333,29.41,31,12,2.53,NG,1707416900
495,guapore,-28.8456,-51.8903,33.17,27,97,0.77,BR,1707416900
496,amga,60.8953,131.9608,-41.18,100,100,0.6,RU,1707416704
497,alice springs,-23.7,133.8833,23.45,20,44,1.34,AU,1707416639
498,maksatikha,57.797,35.8825,-18.32,93,89,3.99,RU,1707416900
499,rezh,57.37,61.4043,-8.76,95,100,2.8,RU,1707416900
500,loango,-4.6719,11.8312,27.35,83,53,3.29,CG,1707416900
501,gaspe,48.8334,-64.4819,-0.88,64,20,3.6,CA,1707416643
502,galashki,43.1136,44.9894,6.38,61,22,1.63,RU,1707416901
503,chibougamau,49.9168,-74.3659,0.79,80,100,4.12,CA,1707416901
504,remiremont,48.0175,6.5882,9.1,90,100,4.0,FR,1707416901
505,isla vista,34.4133,-119.861,12.78,65,0,6.17,US,1707416825
506,guerrero negro,27.9769,-114.0611,16.77,61,56,5.29,MX,1707416707
507,ta`u,-14.2336,-169.5144,27.92,83,100,11.03,AS,1707416702
508,les cayes,18.2,-73.75,27.28,48,48,8.74,HT,1707416902
509,khash,28.2211,61.2158,9.4,31,0,1.64,IR,1707416902
510,twon-brass,4.3151,6.2418,27.98,78,97,5.74,NG,1707416902
511,pereval's'k,48.4378,38.8438,0.86,98,100,3.2,UA,1707416902
512,yanchep,-31.55,115.6833,25.02,26,0,2.77,AU,1707416902
513,sao joao da barra,-21.6403,-41.0511,29.05,76,93,4.57,BR,1707416902
514,sanya,18.2431,109.505,23.09,73,40,4.0,CN,1707416902
515,tera,14.0078,0.7531,27.3,8,0,3.73,NE,1707416902
516,kalmunai,7.4167,81.8167,25.21,77,100,3.17,LK,1707416662
517,repatriacion,-25.5333,-55.95,35.99,32,36,2.53,PY,1707416903
518,sao domingos do maranhao,-5.5758,-44.3853,31.14,62,100,0.47,BR,1707416903
519,al hada,21.3675,40.2869,14.66,73,38,1.86,SA,1707416903
520,laguna,38.421,-121.4238,8.37,89,100,1.54,US,1707416903
521,castillos,-34.1667,-53.8333,30.63,49,23,6.87,UY,1707416665
522,hadgaon,19.5,77.6667,22.6,35,1,2.75,IN,1707416903
523,mirny,62.5353,113.9611,-36.77,100,59,0.89,RU,1707416903
524,yemetsk,63.4721,41.7941,-12.61,94,100,4.04,RU,1707416904
525,arteche,12.2645,125.4048,25.39,83,58,2.27,PH,1707416904
526,ceeldheer,3.8488,47.1806,25.99,75,71,9.74,SO,1707416904
527,erenhot,43.6475,111.9767,-16.28,96,41,2.36,CN,1707416904
528,nemuro,43.3236,145.575,-4.81,76,31,5.64,JP,1707416655
529,saynshand,44.8824,110.1163,-22.76,98,41,1.94,MN,1707416904
530,betio village,1.358,172.9211,28.73,75,100,8.7,KI,1707416904
531,acapulco de juarez,16.8634,-99.8901,28.9,70,20,3.6,MX,1707416905
532,kupang,-10.1667,123.5833,25.32,100,40,1.03,ID,1707416905
533,aioun,16.6614,-9.6149,30.95,7,100,4.68,MR,1707416905
534,amuntai,-2.4177,115.2494,25.14,91,96,0.52,ID,1707416905
535,benguela,-12.5763,13.4055,28.34,76,49,3.23,AO,1707416905
536,gulu,2.7746,32.299,26.68,36,78,1.28,UG,1707416905
537,angaur state,6.906,134.13,26.82,81,89,5.74,PW,1707416906
538,horta,38.5333,-28.6333,15.57,87,40,13.89,PT,1707416698
539,chulym,55.0997,80.9572,-4.7,92,99,6.73,RU,1707416906
540,carnarvon,-24.8667,113.6333,24.89,77,0,4.68,AU,1707416695
541,nampula,-15.1165,39.2666,25.97,83,75,4.63,MZ,1707416906
542,changqing,36.5575,116.7272,-0.13,79,7,3.22,CN,1707416906
543,manadhoo,5.7667,73.3833,27.36,71,100,4.32,MV,1707416906
544,cestos city,5.46,-9.5828,28.74,76,1,5.22,LR,1707416907
545,petropavlovka,50.6114,105.3196,-22.81,99,56,1.01,RU,1707416907
546,badamdar,40.3394,49.8039,14.97,52,7,11.34,AZ,1707416907
547,kavaratti,10.5669,72.642,28.08,75,5,4.27,IN,1707416714
548,talcahuano,-36.7167,-73.1167,22.82,46,0,4.12,CL,1707416692
549,diyarbakir,37.9158,40.2189,7.99,93,100,1.03,TR,1707416907
550,gambela,8.25,34.5833,30.49,40,55,1.95,ET,1707416907
551,xinqing,48.2333,129.5,-21.48,100,100,1.1,CN,1707416907
552,tosontsengel,48.7567,98.2839,-27.77,96,30,0.37,MN,1707416908
553,tibanbang,6.6315,126.1055,25.71,84,79,2.05,PH,1707416908
554,medenine,33.355,10.5055,17.68,29,3,4.16,TN,1707416908
555,roma,43.2128,-75.4557,10.53,43,0,3.09,US,1707416670
556,al jawf,29.5,38.75,15.08,30,0,5.49,SA,1707416691
557,oum hadjer,13.2954,19.6966,27.03,16,16,3.84,TD,1707416908
558,vilhena,-12.7406,-60.1458,32.47,46,48,1.29,BR,1707416908
559,poronaysk,49.2167,143.1167,-23.07,97,73,1.95,RU,1707416683
560,tchaourou,8.8865,2.5975,31.39,14,25,1.64,BJ,1707416909
561,qacha's nek,-30.1154,28.6894,15.38,65,0,0.7,LS,1707416909
562,yulinshi,38.2906,109.7494,-6.68,84,5,1.39,CN,1707416909
563,kruisfontein,-34.0033,24.7314,17.4,74,36,1.54,ZA,1707416638
564,santiago de cao,-7.9589,-79.2392,26.07,78,0,4.12,PE,1707416909
565,labrador city,52.9463,-66.9114,-6.05,73,75,2.06,CA,1707416909
566,turpan,42.9333,89.1667,2.11,47,48,1.87,CN,1707416718
567,garachico,28.7781,-17.7646,24.06,10,0,9.26,ES,1707416910
568,villa gesell,-37.2639,-56.973,22.81,85,100,2.78,AR,1707416910
569,cangucu,-31.395,-52.6756,29.56,34,20,4.2,BR,1707416910
570,cadale,2.7603,46.3222,26.44,82,92,10.22,SO,1707416910
571,lugovoy,42.9472,72.7644,1.84,67,64,3.8,KZ,1707416910
572,el granada,37.5027,-122.4694,10.35,77,0,3.6,US,1707416910
573,miranda do douro,41.4969,-6.2731,8.74,89,100,12.64,PT,1707416911
574,poquoson,37.1224,-76.3458,9.88,55,75,3.09,US,1707416911
575,hinton,53.4001,-117.5857,-2.73,89,100,1.07,CA,1707416911
576,abepura,-2.6333,140.5833,22.45,100,40,0.51,ID,1707416911
